[
  {
    "lat": 30.4577,
    "lon": 130.4889,
    "name": "屋久島・種子島周辺",
    "spot": "屋久島タンク下　",
    "slope": 0.921,
    "region": "本州・高緯度"
  },
  {
    "lat": 28.2926,
    "lon": 129.4754,
    "name": "奄美大島",
    "spot": "和瀬",
    "slope": 0.992,
    "region": "沖縄本島周辺"
  },
  {
    "lat": 28.1888,
    "lon": 129.2438,
    "name": "奄美大島",
    "spot": "デリキョンマ崎",
    "slope": 0.93,
    "region": "沖縄本島周辺"
  },
  {
    "lat": 26.0859,
    "lon": 127.7067,
    "name": "東村～奥",
    "spot": "大度海岸礁斜面",
    "slope": 0.939,
    "region": "沖縄本島周辺"
  },
  {
    "lat": 26.3841,
    "lon": 128.0038,
    "name": "東村～奥",
    "spot": "伊計島東礁斜面",
    "slope": 0.955,
    "region": "沖縄本島周辺"
  },
  {
    "lat": 26.8657,
    "lon": 128.2663,
    "name": "東村～奥",
    "spot": "宇佐浜東",
    "slope": 0.936,
    "region": "沖縄本島周辺"
  },
  {
    "lat": 26.4386,
    "lon": 127.7093,
    "name": "恩納村～残波岬",
    "spot": "残波岬西礁斜面",
    "slope": 0.934,
    "region": "沖縄本島周辺"
  },
  {
    "lat": 26.7153,
    "lon": 128.0213,
    "name": "恩納村～残波岬",
    "spot": "古宇利島北礁斜面",
    "slope": 0.924,
    "region": "沖縄本島周辺"
  },
  {
    "lat": 26.7347,
    "lon": 127.7893,
    "name": "水納島・伊是名島・伊平屋島",
    "spot": "伊江島湧出北",
    "slope": 0.926,
    "region": "沖縄本島周辺"
  },
  {
    "lat": 26.2022,
    "lon": 127.2893,
    "name": "慶良間諸島中心海域（阿嘉島、座間味、渡嘉敷周辺）",
    "spot": "阿嘉ニシハマ",
    "slope": 0.931,
    "region": "沖縄本島周辺"
  },
  {
    "lat": 26.1865,
    "lon": 127.2807,
    "name": "慶良間諸島中心海域（阿嘉島、座間味、渡嘉敷周辺）",
    "spot": "阿嘉マエノハマ",
    "slope": 0.972,
    "region": "沖縄本島周辺"
  },
  {
    "lat": 24.9415,
    "lon": 125.2453,
    "name": "宮古島周辺",
    "spot": "池間島北カギンミ",
    "slope": 1.023,
    "region": "先島諸島"
  },
  {
    "lat": 24.9005,
    "lon": 125.2596,
    "name": "宮古島周辺",
    "spot": "平良狩俣西",
    "slope": 1.041,
    "region": "先島諸島"
  },
  {
    "lat": 24.7978,
    "lon": 125.1619,
    "name": "宮古島周辺",
    "spot": "伊良部下地島渡口沖離礁",
    "slope": 0.994,
    "region": "先島諸島"
  },
  {
    "lat": 24.7194,
    "lon": 125.2643,
    "name": "宮古島周辺",
    "spot": "来間島東ヨコターラ",
    "slope": 0.994,
    "region": "先島諸島"
  },
  {
    "lat": 24.8411,
    "lon": 125.3916,
    "name": "宮古島周辺",
    "spot": "城辺ツフツワ干瀬北",
    "slope": 0.976,
    "region": "先島諸島"
  },
  {
    "lat": 25.0169,
    "lon": 125.2674,
    "name": "八重干瀬",
    "spot": "八重干瀬カナマラ中央南",
    "slope": 1.015,
    "region": "先島諸島"
  },
  {
    "lat": 24.9969,
    "lon": 125.2348,
    "name": "八重干瀬",
    "spot": "八重干瀬クンカディ・ガマ",
    "slope": 1.015,
    "region": "先島諸島"
  },
  {
    "lat": 24.5159,
    "lon": 124.2986,
    "name": "平久保崎～宮良湾",
    "spot": "伊原間牧場前",
    "slope": 1.096,
    "region": "先島諸島"
  },
  {
    "lat": 24.5837,
    "lon": 124.3,
    "name": "川平～大崎",
    "spot": "平久保集落南",
    "slope": 1.089,
    "region": "先島諸島"
  },
  {
    "lat": 24.4728,
    "lon": 124.1447,
    "name": "川平～大崎",
    "spot": "川平水路北西",
    "slope": 1.076,
    "region": "先島諸島"
  },
  {
    "lat": 24.3279,
    "lon": 124.1759,
    "name": "川平～大崎",
    "spot": "真栄里海岸前",
    "slope": 1.083,
    "region": "先島諸島"
  },
  {
    "lat": 24.3423,
    "lon": 124.0329,
    "name": "小浜島周辺",
    "spot": "小浜島東沖礁湖内①***",
    "slope": 1.083,
    "region": "先島諸島"
  },
  {
    "lat": 24.3483,
    "lon": 123.9459,
    "name": "小浜島周辺",
    "spot": "ヨナラ水道中央部①***",
    "slope": 1.007,
    "region": "先島諸島"
  },
  {
    "lat": 24.3698,
    "lon": 124.0095,
    "name": "小浜島周辺",
    "spot": "嘉弥真島北岸礁外縁①***",
    "slope": 0.945,
    "region": "先島諸島"
  },
  {
    "lat": 24.2914,
    "lon": 124.1281,
    "name": "カタグァー周辺",
    "spot": "ウマノハピー礁内①***",
    "slope": 1.085,
    "region": "先島諸島"
  },
  {
    "lat": 24.2521,
    "lon": 124.111,
    "name": "カタグァー周辺",
    "spot": "ウマノハピー内縁③***",
    "slope": 1.034,
    "region": "先島諸島"
  },
  {
    "lat": 24.3012,
    "lon": 123.9996,
    "name": "シモビシ～仲間崎沖",
    "spot": "黒島ー小浜島間離礁①***",
    "slope": 1.067,
    "region": "先島諸島"
  },
  {
    "lat": 24.2639,
    "lon": 123.9382,
    "name": "シモビシ～仲間崎沖",
    "spot": "新城島ー西表島間離礁②***",
    "slope": 1.063,
    "region": "先島諸島"
  },
  {
    "lat": 24.2111,
    "lon": 124.0083,
    "name": "黒島～新城島",
    "spot": "黒島南岸礁外縁***",
    "slope": 0.977,
    "region": "先島諸島"
  },
  {
    "lat": 24.4398,
    "lon": 123.7745,
    "name": "崎山湾（西表島西部）周辺",
    "spot": "星砂浜前礁縁***",
    "slope": 0.971,
    "region": "先島諸島"
  },
  {
    "lat": 24.3231,
    "lon": 123.6736,
    "name": "崎山湾（西表島西部）周辺",
    "spot": "崎山礁縁***",
    "slope": 0.949,
    "region": "先島諸島"
  },
  {
    "lat": 27.1068,
    "lon": 142.1943,
    "name": "父島周辺",
    "spot": "父島　宮之浜",
    "slope": 0.803,
    "region": "先島諸島"
  },
  {
    "lat": 27.0553,
    "lon": 142.2291,
    "name": "父島周辺",
    "spot": "父島　巽東海岸",
    "slope": 0.818,
    "region": "先島諸島"
  },
  {
    "lat": 34.9833,
    "lon": 139.8167,
    "name": "館山湾",
    "spot": "沖ノ島①",
    "slope": 0.841,
    "region": "本州・高緯度"
  },
  {
    "lat": 34.4,
    "lon": 129.2667,
    "name": "壱岐・対馬・五島列島",
    "spot": "対馬　瀬ノ浦",
    "slope": 1.021,
    "region": "本州・高緯度"
  },
  {
    "lat": 32.8667,
    "lon": 128.9667,
    "name": "壱岐・対馬・五島列島",
    "spot": "若松島　滝ケ原",
    "slope": 0.807,
    "region": "本州・高緯度"
  },
  {
    "lat": 33.4806,
    "lon": 135.7463,
    "name": "串本周辺",
    "spot": "展望塔前",
    "slope": 0.964,
    "region": "本州・高緯度"
  },
  {
    "lat": 33.484,
    "lon": 135.6915,
    "name": "串本周辺",
    "spot": "双島①",
    "slope": 0.905,
    "region": "本州・高緯度"
  },
  {
    "lat": 33.0436,
    "lon": 132.4847,
    "name": "四国南西岸(宇和海～足摺岬)",
    "spot": "須ノ川",
    "slope": 0.904,
    "region": "本州・高緯度"
  },
  {
    "lat": 32.8246,
    "lon": 132.6492,
    "name": "四国南西岸(宇和海～足摺岬)",
    "spot": "網代",
    "slope": 0.909,
    "region": "本州・高緯度"
  },
  {
    "lat": 32.7765,
    "lon": 132.7321,
    "name": "四国南西岸(宇和海～足摺岬)",
    "spot": "西泊",
    "slope": 0.942,
    "region": "本州・高緯度"
  },
  {
    "lat": 32.3447,
    "lon": 129.9677,
    "name": "天草周辺",
    "spot": "天草海中公園、大ガ瀬",
    "slope": 0.951,
    "region": "本州・高緯度"
  },
  {
    "lat": 32.1868,
    "lon": 129.9685,
    "name": "天草周辺",
    "spot": "大島北",
    "slope": 0.92,
    "region": "本州・高緯度"
  }
]